[
  {
    "type": "Feature",
    "properties": {
      "name": "AHA Factory",
      "website": "https://www.facebook.com/AHA-Berlin-427566990689415/",
      "description": "",
      "address": {
        "street": "Bërgmannstrasse 68",
        "postcode": "10961",
        "city": " Berlin",
        "country": "DE"
      },
      "rates": {
        "day": "",
        "flex": "",
        "fixed": "250"
      }
    },
    "geometry": {
      "type": "Point",
      "coordinates": [
        "13.40041955",
        "52.48932073"
      ]
    }
  },
  {
    "type": "Feature",
    "properties": {
      "name": "Ahoy",
      "website": "http://ahoyberlin.com",
      "description": "",
      "address": {
        "street": "Wattstraße 11",
        "postcode": "13355",
        "city": " Berlin",
        "country": "DE"
      },
      "rates": {
        "day": "15",
        "flex": "150",
        "fixed": "190"
      }
    },
    "geometry": {
      "type": "Point",
      "coordinates": [
        "13.39012002",
        "52.54128095"
      ]
    }
  },
  {
    "type": "Feature",
    "properties": {
      "name": "Alte Kantine",
      "website": "http://alte-kantine-wedding.de/coworking",
      "description": "",
      "address": {
        "street": "Uferstrasse 8-11",
        "postcode": "13357",
        "city": " Berlin",
        "country": "DE"
      },
      "rates": {
        "day": "",
        "flex": "120",
        "fixed": "170"
      }
    },
    "geometry": {
      "type": "Point",
      "coordinates": [
        "13.37522168",
        "52.55217468"
      ]
    }
  },
  {
    "type": "Feature",
    "properties": {
      "name": "Betahaus",
      "website": "http://betahaus.de",
      "description": "",
      "address": {
        "street": "Prinzessinnenstraße 19-20",
        "postcode": "10969",
        "city": " Berlin",
        "country": "DE"
      },
      "rates": {
        "day": "15",
        "flex": "99",
        "fixed": ""
      }
    },
    "geometry": {
      "type": "Point",
      "coordinates": [
        "13.41220818",
        "52.50254191"
      ]
    }
  },
  {
    "type": "Feature",
    "properties": {
      "name": "b+office",
      "website": "http://bplusoffice.de",
      "description": "",
      "address": {
        "street": "Dudenstraße 10",
        "postcode": "10965",
        "city": " Berlin",
        "country": "DE"
      },
      "rates": {
        "day": "14.28",
        "flex": "169",
        "fixed": "239"
      }
    },
    "geometry": {
      "type": "Point",
      "coordinates": [
        "13.38397933",
        "52.48519085"
      ]
    }
  },
  {
    "type": "Feature",
    "properties": {
      "name": "BUEROW",
      "website": "http://buerow.org",
      "description": "",
      "address": {
        "street": "Dunckerstraße 59b",
        "postcode": "10439",
        "city": " Berlin",
        "country": "DE"
      },
      "rates": {
        "day": "",
        "flex": "699",
        "fixed": ""
      }
    },
    "geometry": {
      "type": "Point",
      "coordinates": [
        "13.42586659",
        "52.54830872"
      ]
    }
  },
  {
    "type": "Feature",
    "properties": {
      "name": "Coconat space",
      "website": "http://coconat-space.com",
      "description": "",
      "address": {
        "street": "Bergstraße 1, Brandenburger Osthavelniederung",
        "postcode": "14550",
        "city": " Groß Kreutz (Havel)",
        "country": "DE"
      },
      "rates": {
        "day": "",
        "flex": "689",
        "fixed": ""
      }
    },
    "geometry": {
      "type": "Point",
      "coordinates": [
        "12.73027062",
        "52.4440406"
      ]
    }
  },
  {
    "type": "Feature",
    "properties": {
      "name": "co.up",
      "website": "http://co-up.de",
      "description": "",
      "address": {
        "street": "Adalbertstraße 8",
        "postcode": "10999",
        "city": " Berlin",
        "country": "DE"
      },
      "rates": {
        "day": "14.99",
        "flex": "",
        "fixed": ""
      }
    },
    "geometry": {
      "type": "Point",
      "coordinates": [
        "13.41972939",
        "52.50038226"
      ]
    }
  },
  {
    "type": "Feature",
    "properties": {
      "name": "coworkINN",
      "website": "http://www.coworkinn.de",
      "description": "",
      "address": {
        "street": "Franklinstraße 8",
        "postcode": "10587",
        "city": " Berlin",
        "country": "DE"
      },
      "rates": {
        "day": "",
        "flex": "",
        "fixed": ""
      }
    },
    "geometry": {
      "type": "Point",
      "coordinates": [
        "13.32704081",
        "52.51964896"
      ]
    }
  },
  {
    "type": "Feature",
    "properties": {
      "name": "co-working space TABLE OF VISIONS",
      "website": "http://coworking-halleamwasser.com",
      "description": "",
      "address": {
        "street": "Brunnenstraße 181",
        "postcode": "10119",
        "city": " Berlin",
        "country": "DE"
      },
      "rates": {
        "day": "",
        "flex": "",
        "fixed": ""
      }
    },
    "geometry": {
      "type": "Point",
      "coordinates": [
        "13.39930194",
        "52.53169382"
      ]
    }
  },
  {
    "type": "Feature",
    "properties": {
      "name": "Creative Office",
      "website": "http://www.creative-office.org",
      "description": "",
      "address": {
        "street": "Finowstraße 5",
        "postcode": "10247",
        "city": " Berlin",
        "country": "DE"
      },
      "rates": {
        "day": "",
        "flex": "",
        "fixed": "160"
      }
    },
    "geometry": {
      "type": "Point",
      "coordinates": [
        "13.46874993",
        "52.51314827"
      ]
    }
  },
  {
    "type": "Feature",
    "properties": {
      "name": "creative|media|lab",
      "website": "http://www.creativemedialab.de/",
      "description": "",
      "address": {
        "street": "Alexanderstraße 7",
        "postcode": "10178",
        "city": " Berlin",
        "country": "DE"
      },
      "rates": {
        "day": "25",
        "flex": "200",
        "fixed": "250"
      }
    },
    "geometry": {
      "type": "Point",
      "coordinates": [
        "13.41629618",
        "52.5228675"
      ]
    }
  },
  {
    "type": "Feature",
    "properties": {
      "name": "ESDIP| Berlin",
      "website": "http://esdipberlin.com/",
      "description": "",
      "address": {
        "street": "Grünberger Straße 48B",
        "postcode": "10245",
        "city": " Berlin",
        "country": "DE"
      },
      "rates": {
        "day": "15",
        "flex": "185",
        "fixed": "245"
      }
    },
    "geometry": {
      "type": "Point",
      "coordinates": [
        "13.45450946",
        "52.51136005"
      ]
    }
  },
  {
    "type": "Feature",
    "properties": {
      "name": "fritz46",
      "website": "http://www.fritz46.de",
      "description": "",
      "address": {
        "street": "Lübecker Straße 46",
        "postcode": "10559",
        "city": " Berlin",
        "country": "DE"
      },
      "rates": {
        "day": "",
        "flex": "159",
        "fixed": "199"
      }
    },
    "geometry": {
      "type": "Point",
      "coordinates": [
        "13.34510341",
        "52.52754677"
      ]
    }
  },
  {
    "type": "Feature",
    "properties": {
      "name": "Glas+Bild",
      "website": "http://www.glasundbild.com/",
      "description": "",
      "address": {
        "street": "Reichenberger Straße 71",
        "postcode": "10999",
        "city": " Berlin",
        "country": "DE"
      },
      "rates": {
        "day": "",
        "flex": "",
        "fixed": ""
      }
    },
    "geometry": {
      "type": "Point",
      "coordinates": [
        "13.43294317",
        "52.49456871"
      ]
    }
  },
  {
    "type": "Feature",
    "properties": {
      "name": "GUUEY Coworking",
      "website": "http://coworking.guuey.com/",
      "description": "",
      "address": {
        "street": "Pettenkoferstr 4c",
        "postcode": "10247",
        "city": " Berlin",
        "country": "DE"
      },
      "rates": {
        "day": "12",
        "flex": "199",
        "fixed": ""
      }
    },
    "geometry": {
      "type": "Point",
      "coordinates": [
        "13.40804105",
        "52.52755379"
      ]
    }
  },
  {
    "type": "Feature",
    "properties": {
      "name": "House of Clouds",
      "website": "http://www.houseofclouds.de/",
      "description": "",
      "address": {
        "street": "Wiclefstraße 16-17",
        "postcode": "10551",
        "city": " Berlin",
        "country": "DE"
      },
      "rates": {
        "day": "15",
        "flex": "190",
        "fixed": ""
      }
    },
    "geometry": {
      "type": "Point",
      "coordinates": [
        "13.3353902",
        "52.53072919"
      ]
    }
  },
  {
    "type": "Feature",
    "properties": {
      "name": "Kulturschöpfer",
      "website": "http://www.kulturschoepfer.de",
      "description": "",
      "address": {
        "street": "Grünberger straße 13",
        "postcode": "10243",
        "city": " Berlin",
        "country": "DE"
      },
      "rates": {
        "day": "",
        "flex": "",
        "fixed": "250"
      }
    },
    "geometry": {
      "type": "Point",
      "coordinates": [
        "13.45029847",
        "52.51299883"
      ]
    }
  },
  {
    "type": "Feature",
    "properties": {
      "name": "Launch/Co",
      "website": "https://launchco.com",
      "description": "",
      "address": {
        "street": "Rudolfstraße 14",
        "postcode": "12045",
        "city": " Berlin",
        "country": "DE"
      },
      "rates": {
        "day": "",
        "flex": "",
        "fixed": ""
      }
    },
    "geometry": {
      "type": "Point",
      "coordinates": [
        "13.45482446",
        "52.50371777"
      ]
    }
  },
  {
    "type": "Feature",
    "properties": {
      "name": "mobilesuite Coworking",
      "website": "http://mobilesuite.de",
      "description": "",
      "address": {
        "street": "Pappelallee 78/79",
        "postcode": "10437",
        "city": " Berlin",
        "country": "DE"
      },
      "rates": {
        "day": "",
        "flex": "199",
        "fixed": "299"
      }
    },
    "geometry": {
      "type": "Point",
      "coordinates": [
        "13.41423598",
        "52.54302187"
      ]
    }
  },
  {
    "type": "Feature",
    "properties": {
      "name": "meeet - Räume für Begegnungen",
      "website": "http://meeet.de/",
      "description": "",
      "address": {
        "street": "Konstanzer straße 15a",
        "postcode": "10707",
        "city": " Berlin",
        "country": "DE"
      },
      "rates": {
        "day": "",
        "flex": "",
        "fixed": ""
      }
    },
    "geometry": {
      "type": "Point",
      "coordinates": [
        "13.31035527",
        "52.49416135"
      ]
    }
  },
  {
    "type": "Feature",
    "properties": {
      "name": "Nest Speise- & Schankwirtschaft",
      "website": "http://cafenest.de/coworking",
      "description": "",
      "address": {
        "street": "Görlitzer straße 52, 10997",
        "postcode": "Berlin",
        "city": null,
        "country": "DE"
      },
      "rates": {
        "day": "12",
        "flex": "",
        "fixed": ""
      }
    },
    "geometry": {
      "type": "Point",
      "coordinates": [
        "13.43944007",
        "52.4974593"
      ]
    }
  },
  {
    "type": "Feature",
    "properties": {
      "name": "OpenDataCity",
      "website": "https://opendatacity.de",
      "description": "",
      "address": {
        "street": "Singerstraße 109",
        "postcode": "10179",
        "city": " Berlin",
        "country": "DE"
      },
      "rates": {
        "day": "",
        "flex": "",
        "fixed": ""
      }
    },
    "geometry": {
      "type": "Point",
      "coordinates": [
        "13.42535613",
        "52.51773686"
      ]
    }
  },
  {
    "type": "Feature",
    "properties": {
      "name": "PulsRaum",
      "website": "http://coworking.pulsraum.de/",
      "description": "",
      "address": {
        "street": "Kottbusser Damm 25-26",
        "postcode": "10967",
        "city": " Berlin",
        "country": "DE"
      },
      "rates": {
        "day": "",
        "flex": "250",
        "fixed": ""
      }
    },
    "geometry": {
      "type": "Point",
      "coordinates": [
        "13.42380594",
        "52.48979131"
      ]
    }
  },
  {
    "type": "Feature",
    "properties": {
      "name": "raumstation",
      "website": "http://raumstation-berlin.net",
      "description": "",
      "address": {
        "street": "Stendalerstrasse 4",
        "postcode": "10559",
        "city": " Berlin",
        "country": "DE"
      },
      "rates": {
        "day": "",
        "flex": "",
        "fixed": ""
      }
    },
    "geometry": {
      "type": "Point",
      "coordinates": [
        "13.34920924",
        "52.53330075"
      ]
    }
  },
  {
    "type": "Feature",
    "properties": {
      "name": "raumteiler16",
      "website": "http://www.raumteiler-berlin.de/",
      "description": "",
      "address": {
        "street": "Tuerken straße 16",
        "postcode": "13353",
        "city": " Berlin",
        "country": "DE"
      },
      "rates": {
        "day": "",
        "flex": "",
        "fixed": ""
      }
    },
    "geometry": {
      "type": "Point",
      "coordinates": [
        "13.34890923",
        "52.55498014"
      ]
    }
  },
  {
    "type": "Feature",
    "properties": {
      "name": "Rainmaking Loft",
      "website": "http://www.rainmakingloft.com/",
      "description": "",
      "address": {
        "street": "Charlottenstraße 2",
        "postcode": "10969",
        "city": " Berlin",
        "country": "DE"
      },
      "rates": {
        "day": "",
        "flex": "",
        "fixed": "379"
      }
    },
    "geometry": {
      "type": "Point",
      "coordinates": [
        "13.39326105",
        "52.50525675"
      ]
    }
  },
  {
    "type": "Feature",
    "properties": {
      "name": "Space Shack",
      "website": "https://www.space-shack.com/",
      "description": "",
      "address": {
        "street": "Hauptstraße 19",
        "postcode": "10823",
        "city": " Berlin-Schöneberg",
        "country": "DE"
      },
      "rates": {
        "day": "",
        "flex": "165",
        "fixed": "235"
      }
    },
    "geometry": {
      "type": "Point",
      "coordinates": [
        "13.35638066",
        "52.4867403"
      ]
    }
  },
  {
    "type": "Feature",
    "properties": {
      "name": "Sankt Oberholz",
      "website": "http://sanktoberholz.de",
      "description": "",
      "address": {
        "street": "Rosenthaler Straße 72a",
        "postcode": "10119",
        "city": " Berlin",
        "country": "DE"
      },
      "rates": {
        "day": "",
        "flex": "",
        "fixed": ""
      }
    },
    "geometry": {
      "type": "Point",
      "coordinates": [
        "13.40189349",
        "52.52954728"
      ]
    }
  },
  {
    "type": "Feature",
    "properties": {
      "name": "Salon Renate",
      "website": "http://salonrenate.com/",
      "description": "",
      "address": {
        "street": "Weichselstraße 65",
        "postcode": "12043",
        "city": " Berlin",
        "country": "DE"
      },
      "rates": {
        "day": "",
        "flex": "",
        "fixed": "150"
      }
    },
    "geometry": {
      "type": "Point",
      "coordinates": [
        "13.43241093",
        "52.48423969"
      ]
    }
  },
  {
    "type": "Feature",
    "properties": {
      "name": "Supermarkt",
      "website": "http://www.supermarkt-berlin.net",
      "description": "",
      "address": {
        "street": "Mehringplatz 9",
        "postcode": "10969",
        "city": " Berlin",
        "country": "DE"
      },
      "rates": {
        "day": "",
        "flex": "",
        "fixed": ""
      }
    },
    "geometry": {
      "type": "Point",
      "coordinates": [
        "13.39052617",
        "52.49965635"
      ]
    }
  },
  {
    "type": "Feature",
    "properties": {
      "name": "Square Haus",
      "website": "http://www.coworking-berlin-squarehaus.de",
      "description": "",
      "address": {
        "street": "Bülowstraße 6",
        "postcode": "10783",
        "city": " Berlin",
        "country": "DE"
      },
      "rates": {
        "day": "",
        "flex": "279",
        "fixed": ""
      }
    },
    "geometry": {
      "type": "Point",
      "coordinates": [
        "13.35622153",
        "52.49872907"
      ]
    }
  },
  {
    "type": "Feature",
    "properties": {
      "name": "Studio Hertzberg",
      "website": "http://www.studiohertzberg.de/",
      "description": "",
      "address": {
        "street": "Sonnenallee 174",
        "postcode": "12059",
        "city": " Berlin",
        "country": "DE"
      },
      "rates": {
        "day": "",
        "flex": "",
        "fixed": ""
      }
    },
    "geometry": {
      "type": "Point",
      "coordinates": [
        "13.4489094",
        "52.47684936"
      ]
    }
  },
  {
    "type": "Feature",
    "properties": {
      "name": "Strategy Team",
      "website": "https://www.facebook.com/coworkingstrategyteam/",
      "description": "",
      "address": {
        "street": "Hardenbergstraße 8",
        "postcode": "10623",
        "city": " Berlin",
        "country": "DE"
      },
      "rates": {
        "day": "",
        "flex": "",
        "fixed": ""
      }
    },
    "geometry": {
      "type": "Point",
      "coordinates": [
        "13.32397909",
        "52.51004026"
      ]
    }
  },
  {
    "type": "Feature",
    "properties": {
      "name": "Tante Renate",
      "website": "http://tanterenate.de",
      "description": "",
      "address": {
        "street": "Waldemarstraße 37a",
        "postcode": "10999",
        "city": " Berlin",
        "country": "DE"
      },
      "rates": {
        "day": "",
        "flex": "",
        "fixed": ""
      }
    },
    "geometry": {
      "type": "Point",
      "coordinates": [
        "13.41957298",
        "52.50363115"
      ]
    }
  },
  {
    "type": "Feature",
    "properties": {
      "name": "Enklave",
      "website": "http://www.enklave.de/",
      "description": "",
      "address": {
        "street": "Kienitzer Strasse 98",
        "postcode": "12049",
        "city": " Berlin",
        "country": "DE"
      },
      "rates": {
        "day": "6.93",
        "flex": "149",
        "fixed": "249"
      }
    },
    "geometry": {
      "type": "Point",
      "coordinates": [
        "13.42535286",
        "52.47658554"
      ]
    }
  },
  {
    "type": "Feature",
    "properties": {
      "name": "Transistor",
      "website": "http://transistor.berlin/",
      "description": "",
      "address": {
        "street": "Ohlauer straße 43",
        "postcode": "10999",
        "city": " Berlin",
        "country": "DE"
      },
      "rates": {
        "day": "25",
        "flex": "250",
        "fixed": "300"
      }
    },
    "geometry": {
      "type": "Point",
      "coordinates": [
        "13.42701142",
        "52.49403073"
      ]
    }
  },
  {
    "type": "Feature",
    "properties": {
      "name": "U8| Berlin",
      "website": "http://www.u8berlin.com/",
      "description": "",
      "address": {
        "street": "Herzbergstraße 55",
        "postcode": "10365",
        "city": " Berlin",
        "country": "DE"
      },
      "rates": {
        "day": "",
        "flex": "",
        "fixed": ""
      }
    },
    "geometry": {
      "type": "Point",
      "coordinates": [
        "13.49805332",
        "52.52626995"
      ]
    }
  },
  {
    "type": "Feature",
    "properties": {
      "name": "United Urbanites",
      "website": "http://www.united-urbanites.com/",
      "description": "",
      "address": {
        "street": "Pappelallee 24",
        "postcode": "10437",
        "city": " Berlin",
        "country": "DE"
      },
      "rates": {
        "day": "",
        "flex": "",
        "fixed": ""
      }
    },
    "geometry": {
      "type": "Point",
      "coordinates": [
        "13.41648008",
        "52.54468088"
      ]
    }
  },
  {
    "type": "Feature",
    "properties": {
      "name": "überlin",
      "website": "http://www.uberlin.co.uk",
      "description": "",
      "address": {
        "street": "Böckhstraße 26",
        "postcode": "10967",
        "city": " Berlin",
        "country": "DE"
      },
      "rates": {
        "day": "",
        "flex": "",
        "fixed": ""
      }
    },
    "geometry": {
      "type": "Point",
      "coordinates": [
        "13.42092945",
        "52.49279096"
      ]
    }
  },
  {
    "type": "Feature",
    "properties": {
      "name": "Weserland Coworking",
      "website": "http://www.weserland.net/",
      "description": "",
      "address": {
        "street": "Weserstrasse 21",
        "postcode": "12045",
        "city": " Berlin",
        "country": "DE"
      },
      "rates": {
        "day": "10",
        "flex": "100",
        "fixed": "200"
      }
    },
    "geometry": {
      "type": "Point",
      "coordinates": [
        "13.4328502",
        "52.48679994"
      ]
    }
  },
  {
    "type": "Feature",
    "properties": {
      "name": "welance",
      "website": "https://welance.de/",
      "description": "",
      "address": {
        "street": "Waldemarstraße 37a",
        "postcode": "10999",
        "city": " Berlin",
        "country": "DE"
      },
      "rates": {
        "day": "",
        "flex": "",
        "fixed": ""
      }
    },
    "geometry": {
      "type": "Point",
      "coordinates": [
        "13.41960993",
        "52.50377031"
      ]
    }
  },
  {
    "type": "Feature",
    "properties": {
      "name": "Wostel",
      "website": "http://wostel.de",
      "description": "",
      "address": {
        "street": "Hobrechtstraße 66",
        "postcode": "12047",
        "city": " Berlin",
        "country": "DE"
      },
      "rates": {
        "day": "",
        "flex": "",
        "fixed": ""
      }
    },
    "geometry": {
      "type": "Point",
      "coordinates": [
        "13.42622969",
        "52.48925908"
      ]
    }
  },
  {
    "type": "Feature",
    "properties": {
      "name": "IKEA Lichtenberg",
      "website": "http://www.ikea.com/de/de/store/berlin_tempelhof/indexPage",
      "description": "",
      "address": {
        "street": "Landsberger Allee 364",
        "postcode": "10365",
        "city": " Berlin",
        "country": "DE"
      },
      "rates": {
        "day": "",
        "flex": "",
        "fixed": ""
      }
    },
    "geometry": {
      "type": "Point",
      "coordinates": [
        "13.5137448",
        "52.53451297"
      ]
    }
  },
  {
    "type": "Feature",
    "properties": {
      "name": "Cafe Bilderbuch",
      "website": "http://www.cafe-bilderbuch.de",
      "description": "",
      "address": {
        "street": "Akazienstraße 28",
        "postcode": "10823",
        "city": " Berlin",
        "country": "DE"
      },
      "rates": {
        "day": "",
        "flex": "",
        "fixed": ""
      }
    },
    "geometry": {
      "type": "Point",
      "coordinates": [
        "13.35507333",
        "52.486677"
      ]
    }
  },
  {
    "type": "Feature",
    "properties": {
      "name": "Milch & Zucker",
      "website": "",
      "description": "",
      "address": {
        "street": "Oranienstraße 37",
        "postcode": "10999",
        "city": " Berlin",
        "country": "DE"
      },
      "rates": {
        "day": "",
        "flex": "",
        "fixed": ""
      }
    },
    "geometry": {
      "type": "Point",
      "coordinates": [
        "13.41764063",
        "52.5018298"
      ]
    }
  },
  {
    "type": "Feature",
    "properties": {
      "name": "Milch & Zucker",
      "website": "",
      "description": "",
      "address": {
        "street": "Warschauer straße 70",
        "postcode": "10243",
        "city": " Berlin",
        "country": "DE"
      },
      "rates": {
        "day": "",
        "flex": "",
        "fixed": ""
      }
    },
    "geometry": {
      "type": "Point",
      "coordinates": [
        "13.45263347",
        "52.51169668"
      ]
    }
  },
  {
    "type": "Feature",
    "properties": {
      "name": "Rubens Coffee Lounge",
      "website": "http://www.rubens-berlin.de",
      "description": "",
      "address": {
        "street": "Mehringdamm 65",
        "postcode": "10961",
        "city": " Berlin",
        "country": "DE"
      },
      "rates": {
        "day": "",
        "flex": "",
        "fixed": ""
      }
    },
    "geometry": {
      "type": "Point",
      "coordinates": [
        "13.38673279",
        "52.49051546"
      ]
    }
  },
  {
    "type": "Feature",
    "properties": {
      "name": "Matzbach Restaurant",
      "website": "http://www.matzbach-berlin.de/",
      "description": "",
      "address": {
        "street": "Marheinekepl. 15",
        "postcode": "10961",
        "city": " Berlin",
        "country": "DE"
      },
      "rates": {
        "day": "",
        "flex": "",
        "fixed": ""
      }
    },
    "geometry": {
      "type": "Point",
      "coordinates": [
        "13.39416469",
        "52.48945677"
      ]
    }
  },
  {
    "type": "Feature",
    "properties": {
      "name": "J.A.S. Cafe und Restauration",
      "website": "http://www.jas-berlin.de",
      "description": "",
      "address": {
        "street": "Kaskelstraße 27",
        "postcode": "10317",
        "city": " Berlin",
        "country": "DE"
      },
      "rates": {
        "day": "",
        "flex": "",
        "fixed": ""
      }
    },
    "geometry": {
      "type": "Point",
      "coordinates": [
        "13.47910859",
        "52.5043847"
      ]
    }
  },
  {
    "type": "Feature",
    "properties": {
      "name": "Melis Cafe",
      "website": "",
      "description": "",
      "address": {
        "street": "Prenzlauer Allee 51",
        "postcode": "10405",
        "city": " Berlin",
        "country": "DE"
      },
      "rates": {
        "day": "",
        "flex": "",
        "fixed": ""
      }
    },
    "geometry": {
      "type": "Point",
      "coordinates": [
        "13.42396041",
        "52.53798978"
      ]
    }
  },
  {
    "type": "Feature",
    "properties": {
      "name": "Lindsays Cafe",
      "website": "",
      "description": "",
      "address": {
        "street": "Weichselstraße 26",
        "postcode": "10247",
        "city": " Berlin",
        "country": "DE"
      },
      "rates": {
        "day": "",
        "flex": "",
        "fixed": ""
      }
    },
    "geometry": {
      "type": "Point",
      "coordinates": [
        "13.4681233",
        "52.51024746"
      ]
    }
  },
  {
    "type": "Feature",
    "properties": {
      "name": "No Fire No Glory",
      "website": "http://www.nofirenoglory.de/",
      "description": "",
      "address": {
        "street": "Rykestraße 45",
        "postcode": "10405",
        "city": " Berlin",
        "country": "DE"
      },
      "rates": {
        "day": "",
        "flex": "",
        "fixed": ""
      }
    },
    "geometry": {
      "type": "Point",
      "coordinates": [
        "13.4204555",
        "52.53666552"
      ]
    }
  },
  {
    "type": "Feature",
    "properties": {
      "name": "Oslo Kaffebar",
      "website": "",
      "description": "",
      "address": {
        "street": "Eichendorffstraße 13",
        "postcode": "10115",
        "city": " Berlin",
        "country": "DE"
      },
      "rates": {
        "day": "",
        "flex": "",
        "fixed": ""
      }
    },
    "geometry": {
      "type": "Point",
      "coordinates": [
        "13.38673977",
        "52.53095707"
      ]
    }
  },
  {
    "type": "Feature",
    "properties": {
      "name": "Parker Bowles",
      "website": "",
      "description": "",
      "address": {
        "street": "Prinzenstraße 85d",
        "postcode": "10969",
        "city": " Berlin",
        "country": "DE"
      },
      "rates": {
        "day": "",
        "flex": "",
        "fixed": ""
      }
    },
    "geometry": {
      "type": "Point",
      "coordinates": [
        "13.40958613",
        "52.50267212"
      ]
    }
  },
  {
    "type": "Feature",
    "properties": {
      "name": "Cafe Extrablatt",
      "website": "",
      "description": "",
      "address": {
        "street": "Wilmersdorfer straße 46",
        "postcode": "10627",
        "city": " Berlin",
        "country": "DE"
      },
      "rates": {
        "day": "",
        "flex": "",
        "fixed": ""
      }
    },
    "geometry": {
      "type": "Point",
      "coordinates": [
        "13.3052341",
        "52.50925091"
      ]
    }
  },
  {
    "type": "Feature",
    "properties": {
      "name": "kaufbar",
      "website": "",
      "description": "",
      "address": {
        "street": "Gärtnerstraße 4",
        "postcode": "10245",
        "city": " Berlin",
        "country": "DE"
      },
      "rates": {
        "day": "",
        "flex": "",
        "fixed": ""
      }
    },
    "geometry": {
      "type": "Point",
      "coordinates": [
        "13.46002338",
        "52.50870548"
      ]
    }
  },
  {
    "type": "Feature",
    "properties": {
      "name": "Jenzeits",
      "website": "",
      "description": "",
      "address": {
        "street": "Heinrichplatz",
        "postcode": "10999",
        "city": " Berlin",
        "country": "DE"
      },
      "rates": {
        "day": "",
        "flex": "",
        "fixed": ""
      }
    },
    "geometry": {
      "type": "Point",
      "coordinates": [
        "13.42294371",
        "52.50048739"
      ]
    }
  },
  {
    "type": "Feature",
    "properties": {
      "name": "Michelberger Booze",
      "website": "http://www.michelbergerbooze.com/",
      "description": "",
      "address": {
        "street": "Warschauer Straße 39/40",
        "postcode": "10243",
        "city": " Berlin",
        "country": "DE"
      },
      "rates": {
        "day": "",
        "flex": "",
        "fixed": ""
      }
    },
    "geometry": {
      "type": "Point",
      "coordinates": [
        "13.44763747",
        "52.50470786"
      ]
    }
  },
  {
    "type": "Feature",
    "properties": {
      "name": "Westberlin Cafe",
      "website": "http://www.westberlin-bar-shop.de",
      "description": "",
      "address": {
        "street": "Friedrichstrasse 215",
        "postcode": "10969",
        "city": " Berlin",
        "country": "DE"
      },
      "rates": {
        "day": "",
        "flex": "",
        "fixed": ""
      }
    },
    "geometry": {
      "type": "Point",
      "coordinates": [
        "13.39014529",
        "52.50615908"
      ]
    }
  },
  {
    "type": "Feature",
    "properties": {
      "name": "The Barn",
      "website": "http://barn.bigcartel.com",
      "description": "",
      "address": {
        "street": "Auguststraße 58",
        "postcode": "10115",
        "city": " Berlin",
        "country": "DE"
      },
      "rates": {
        "day": "",
        "flex": "",
        "fixed": ""
      }
    },
    "geometry": {
      "type": "Point",
      "coordinates": [
        "13.39824504",
        "52.52740482"
      ]
    }
  },
  {
    "type": "Feature",
    "properties": {
      "name": "Cuccuma Espresso & Focaccia",
      "website": "http://cuccuma.de",
      "description": "",
      "address": {
        "street": "Zossener Straße 34",
        "postcode": "10961",
        "city": " Berlin",
        "country": "DE"
      },
      "rates": {
        "day": "",
        "flex": "",
        "fixed": ""
      }
    },
    "geometry": {
      "type": "Point",
      "coordinates": [
        "13.39482077",
        "52.49060931"
      ]
    }
  },
  {
    "type": "Feature",
    "properties": {
      "name": "Café au lait",
      "website": "",
      "description": "",
      "address": {
        "street": "Kantstraße 110",
        "postcode": "10627",
        "city": " Berlin",
        "country": "DE"
      },
      "rates": {
        "day": "",
        "flex": "",
        "fixed": ""
      }
    },
    "geometry": {
      "type": "Point",
      "coordinates": [
        "13.30555995",
        "52.50650078"
      ]
    }
  },
  {
    "type": "Feature",
    "properties": {
      "name": "Gottlob",
      "website": "http://www.gottlob-berlin.de",
      "description": "",
      "address": {
        "street": "Akazienstraße 17",
        "postcode": "10823",
        "city": " Berlin",
        "country": "DE"
      },
      "rates": {
        "day": "",
        "flex": "",
        "fixed": ""
      }
    },
    "geometry": {
      "type": "Point",
      "coordinates": [
        "13.35366964",
        "52.48947022"
      ]
    }
  },
  {
    "type": "Feature",
    "properties": {
      "name": "Eis-Hennig",
      "website": "",
      "description": "",
      "address": {
        "street": "Tempelhofer Damm 134",
        "postcode": "12099",
        "city": " Berlin",
        "country": "DE"
      },
      "rates": {
        "day": "",
        "flex": "",
        "fixed": ""
      }
    },
    "geometry": {
      "type": "Point",
      "coordinates": [
        "13.38498053",
        "52.46741062"
      ]
    }
  },
  {
    "type": "Feature",
    "properties": {
      "name": "Starbucks Hackesche Höfe",
      "website": "",
      "description": "",
      "address": {
        "street": "Rosenthaler Straße 40-41",
        "postcode": "10178",
        "city": " Berlin, ",
        "country": "DE"
      },
      "rates": {
        "day": "",
        "flex": "",
        "fixed": ""
      }
    },
    "geometry": {
      "type": "Point",
      "coordinates": [
        "13.4025362",
        "52.52401403"
      ]
    }
  },
  {
    "type": "Feature",
    "properties": {
      "name": "Kleine Mensa",
      "website": "",
      "description": "",
      "address": {
        "street": "Triftstraße 58",
        "postcode": "12099",
        "city": " Berlin, ",
        "country": "DE"
      },
      "rates": {
        "day": "",
        "flex": "",
        "fixed": ""
      }
    },
    "geometry": {
      "type": "Point",
      "coordinates": [
        "13.35681083",
        "52.54313963"
      ]
    }
  },
  {
    "type": "Feature",
    "properties": {
      "name": "The Kitchen",
      "website": "http://www.circus-berlin.de/apartments/service/the-kitchen-cafe-lounge/",
      "description": "",
      "address": {
        "street": "Choriner Straße 84",
        "postcode": "10119",
        "city": " Berlin",
        "country": "DE"
      },
      "rates": {
        "day": "",
        "flex": "",
        "fixed": ""
      }
    },
    "geometry": {
      "type": "Point",
      "coordinates": [
        "13.40609428",
        "52.53085405"
      ]
    }
  },
  {
    "type": "Feature",
    "properties": {
      "name": "Silo Coffee",
      "website": "https://www.facebook.com/silocoffee",
      "description": "",
      "address": {
        "street": "Gabriel-Max-Straße 4",
        "postcode": "10245",
        "city": " Berlin",
        "country": "DE"
      },
      "rates": {
        "day": "",
        "flex": "",
        "fixed": ""
      }
    },
    "geometry": {
      "type": "Point",
      "coordinates": [
        "13.45841967",
        "52.51005935"
      ]
    }
  },
  {
    "type": "Feature",
    "properties": {
      "name": "Milchschaum",
      "website": "",
      "description": "",
      "address": {
        "street": "Bergmannstraße 3",
        "postcode": "10961",
        "city": " Berlin",
        "country": "DE"
      },
      "rates": {
        "day": "",
        "flex": "",
        "fixed": ""
      }
    },
    "geometry": {
      "type": "Point",
      "coordinates": [
        "13.38937447",
        "52.48980059"
      ]
    }
  },
  {
    "type": "Feature",
    "properties": {
      "name": "Nothaft Seidel Café",
      "website": "https://www.facebook.com/NothaftSeidelCafe",
      "description": "",
      "address": {
        "street": "Schönhauser Allee 43a",
        "postcode": "10435",
        "city": " Berlin",
        "country": "DE"
      },
      "rates": {
        "day": "",
        "flex": "",
        "fixed": ""
      }
    },
    "geometry": {
      "type": "Point",
      "coordinates": [
        "13.41304111",
        "52.54013804"
      ]
    }
  },
  {
    "type": "Feature",
    "properties": {
      "name": "Coffee Bar",
      "website": "http://www.yelp.com/biz/coffee-bar-berlin-5",
      "description": "",
      "address": {
        "street": "Inge-Beisheim-Platz 2",
        "postcode": "10785",
        "city": " Berlin",
        "country": "DE"
      },
      "rates": {
        "day": "",
        "flex": "",
        "fixed": ""
      }
    },
    "geometry": {
      "type": "Point",
      "coordinates": [
        "13.37339103",
        "52.51045091"
      ]
    }
  },
  {
    "type": "Feature",
    "properties": {
      "name": "Shakespeare and Sons",
      "website": "http://www.shakesbooks.de/",
      "description": "",
      "address": {
        "street": "Warschauer straße 74",
        "postcode": "10243",
        "city": " Berlin",
        "country": "DE"
      },
      "rates": {
        "day": "",
        "flex": "",
        "fixed": ""
      }
    },
    "geometry": {
      "type": "Point",
      "coordinates": [
        "13.45096052",
        "52.51283828"
      ]
    }
  },
  {
    "type": "Feature",
    "properties": {
      "name": "Basecamp",
      "website": "https://basecamp.telefonica.de/",
      "description": "",
      "address": {
        "street": "Mittelstraße 51 - 53",
        "postcode": "10117",
        "city": " Berlin",
        "country": "DE"
      },
      "rates": {
        "day": "",
        "flex": "",
        "fixed": ""
      }
    },
    "geometry": {
      "type": "Point",
      "coordinates": [
        "13.38815943",
        "52.51789987"
      ]
    }
  },
  {
    "type": "Feature",
    "properties": {
      "name": "Enter-Brain-Ment Entwicklerstudio",
      "website": "http://coworking.enter-brain-ment.de/",
      "description": "",
      "address": {
        "street": "Rigaer straße 29a",
        "postcode": "10247",
        "city": " Berlin",
        "country": "DE"
      },
      "rates": {
        "day": "",
        "flex": "",
        "fixed": "160"
      }
    },
    "geometry": {
      "type": "Point",
      "coordinates": [
        "13.46294011",
        "52.51651998"
      ]
    }
  },
  {
    "type": "Feature",
    "properties": {
      "name": "mattern16",
      "website": "http://mattern16.amarantus.de",
      "description": "",
      "address": {
        "street": "Matternstraße 16",
        "postcode": "10249",
        "city": " Berlin",
        "country": "DE"
      },
      "rates": {
        "day": "",
        "flex": "",
        "fixed": ""
      }
    },
    "geometry": {
      "type": "Point",
      "coordinates": [
        "13.4524305",
        "52.52219936"
      ]
    }
  },
  {
    "type": "Feature",
    "properties": {
      "name": "TeilREICH",
      "website": "http://www.teilreich.de/",
      "description": "",
      "address": {
        "street": "Wiclefstraße 50",
        "postcode": "10551",
        "city": " Berlin",
        "country": "DE"
      },
      "rates": {
        "day": "",
        "flex": "259",
        "fixed": ""
      }
    },
    "geometry": {
      "type": "Point",
      "coordinates": [
        "13.33386966",
        "52.53039072"
      ]
    }
  },
  {
    "type": "Feature",
    "properties": {
      "name": "Familienbetrieb",
      "website": "http://familienbetrieb-berlin.de/",
      "description": "",
      "address": {
        "street": "Gabriel-Max-straße 11",
        "postcode": "10245",
        "city": " Berlin",
        "country": "DE"
      },
      "rates": {
        "day": "",
        "flex": "",
        "fixed": ""
      }
    },
    "geometry": {
      "type": "Point",
      "coordinates": [
        "13.45898072",
        "52.51222251"
      ]
    }
  },
  {
    "type": "Feature",
    "properties": {
      "name": "Colonia Nova",
      "website": "http://www.colonianova.com/en",
      "description": "",
      "address": {
        "street": "Thiemannstrasse 1",
        "postcode": "12059",
        "city": " Berlin",
        "country": "DE"
      },
      "rates": {
        "day": "",
        "flex": "",
        "fixed": ""
      }
    },
    "geometry": {
      "type": "Point",
      "coordinates": [
        "13.45301286",
        "52.47889011"
      ]
    }
  },
  {
    "type": "Feature",
    "properties": {
      "name": "alteFEINbaeckerei",
      "website": "http://www.altefeinbaeckerei.de",
      "description": "",
      "address": {
        "street": "Carl-von-Ossietzky-Strasse 21",
        "postcode": "14471 Potsdam West",
        "city": null,
        "country": "DE"
      },
      "rates": {
        "day": "15",
        "flex": "170",
        "fixed": ""
      }
    },
    "geometry": {
      "type": "Point",
      "coordinates": [
        "13.03417795",
        "52.39750577"
      ]
    }
  },
  {
    "type": "Feature",
    "properties": {
      "name": "Factory| Berlin",
      "website": "http://factoryberlin.com/",
      "description": "",
      "address": {
        "street": "Rheinsberger straße 76/77",
        "postcode": "10115",
        "city": " Berlin",
        "country": "DE"
      },
      "rates": {
        "day": "",
        "flex": "",
        "fixed": ""
      }
    },
    "geometry": {
      "type": "Point",
      "coordinates": [
        "13.39488942",
        "52.53682907"
      ]
    }
  },
  {
    "type": "Feature",
    "properties": {
      "name": "juggleHUB",
      "website": "http://jugglehub.de",
      "description": "",
      "address": {
        "street": "Christburger Straße 23",
        "postcode": "10405",
        "city": " Berlin",
        "country": "DE"
      },
      "rates": {
        "day": "16",
        "flex": "79",
        "fixed": "269"
      }
    },
    "geometry": {
      "type": "Point",
      "coordinates": [
        "13.43057041",
        "52.53477041"
      ]
    }
  },
  {
    "type": "Feature",
    "properties": {
      "name": "Unicorn.Berlin Wedding",
      "website": "http://unicorn.berlin/locations/wedding/",
      "description": "Event Space",
      "address": {
        "street": "Brunnenstraße 64",
        "postcode": "13335",
        "city": " Berlin",
        "country": "DE"
      },
      "rates": {
        "day": "",
        "flex": "69",
        "fixed": "149.00"
      }
    },
    "geometry": {
      "type": "Point",
      "coordinates": [
        "13.39494982",
        "52.54047938"
      ]
    }
  },
  {
    "type": "Feature",
    "properties": {
      "name": "Unicorn.Berlin Mitte",
      "website": "http://unicorn.berlin/locations/mitte/",
      "description": "Event Space",
      "address": {
        "street": "Brunnenstraße 173",
        "postcode": "10115",
        "city": " Berlin",
        "country": "DE"
      },
      "rates": {
        "day": "16.50",
        "flex": "",
        "fixed": ""
      }
    },
    "geometry": {
      "type": "Point",
      "coordinates": [
        "13.39840992",
        "52.53290055"
      ]
    }
  },
  {
    "type": "Feature",
    "properties": {
      "name": "Unicorn.Berlin Kleist",
      "website": "https://unicorn.berlin/locations/unicorn-berlin-kleiststrasse/",
      "description": "Fix Desks, Team Rooms",
      "address": {
        "street": "Kleiststraße 23",
        "postcode": "10787",
        "city": " Berlin",
        "country": "DE"
      },
      "rates": {
        "day": "",
        "flex": "",
        "fixed": ""
      }
    },
    "geometry": {
      "type": "Point",
      "coordinates": [
        "13.3444221",
        "52.5012263"
      ]
    }
  },
  {
    "type": "Feature",
    "properties": {
      "name": "Unicorn.Berlin Village",
      "website": "https://unicorn.berlin/locations/unicorn-village/",
      "description": "Fix Desks, Team Rooms",
      "address": {
        "street": "Richardstrasse 85/86",
        "postcode": "12043",
        "city": " Berlin",
        "country": "DE"
      },
      "rates": {
        "day": "",
        "flex": "",
        "fixed": "340.00"
      }
    },
    "geometry": {
      "type": "Point",
      "coordinates": [
        "13.44368",
        "52.4758"
      ]
    }
  },
  {
    "type": "Feature",
    "properties": {
      "name": "Noize Fabrik",
      "website": "http://www.noizefabrik.com",
      "description": "",
      "address": {
        "street": "Elsenstraße 52",
        "postcode": "12059",
        "city": " Berlin",
        "country": "DE"
      },
      "rates": {
        "day": "10",
        "flex": "99.99",
        "fixed": ""
      }
    },
    "geometry": {
      "type": "Point",
      "coordinates": [
        "13.44931025",
        "52.48558076"
      ]
    }
  },
  {
    "type": "Feature",
    "properties": {
      "name": "The Workspace",
      "website": "http://theworkspace.de/",
      "description": "",
      "address": {
        "street": "Lindenstrasse 20-25",
        "postcode": "10969",
        "city": " Berlin",
        "country": "DE"
      },
      "rates": {
        "day": "10",
        "flex": "150",
        "fixed": "250"
      }
    },
    "geometry": {
      "type": "Point",
      "coordinates": [
        "13.39626909",
        "52.50385063"
      ]
    }
  },
  {
    "type": "Feature",
    "properties": {
      "name": "Amapola Coworking",
      "website": "http://amapola-coworking.de",
      "description": "",
      "address": {
        "street": "Scharnhorststraße 24",
        "postcode": "10115",
        "city": " Berlin",
        "country": "DE"
      },
      "rates": {
        "day": "12",
        "flex": "150",
        "fixed": "190"
      }
    },
    "geometry": {
      "type": "Point",
      "coordinates": [
        "13.37020001",
        "52.53413934"
      ]
    }
  },
  {
    "type": "Feature",
    "properties": {
      "name": "tuesday coworking",
      "website": "www.tuesdaycoworking.com",
      "description": "",
      "address": {
        "street": "Feurigstrasse 51",
        "postcode": null,
        "city": "Berlin",
        "country": "DE"
      },
      "rates": {
        "day": "10",
        "flex": "150",
        "fixed": "200"
      }
    },
    "geometry": {
      "type": "Point",
      "coordinates": [
        "13.35371938",
        "52.48306096"
      ]
    }
  },
  {
    "type": "Feature",
    "properties": {
      "name": "The Earlybird| Berlin",
      "website": "http://earlybird-berlin.de/",
      "description": "",
      "address": {
        "street": "Rudi-Dutschke-Str 6",
        "postcode": null,
        "city": "Berlin",
        "country": "DE"
      },
      "rates": {
        "day": "12",
        "flex": "150",
        "fixed": ""
      }
    },
    "geometry": {
      "type": "Point",
      "coordinates": [
        "13.39554001",
        "52.50723963"
      ]
    }
  },
  {
    "type": "Feature",
    "properties": {
      "name": "Mindspace",
      "website": "http://mindspace.me/berlin/",
      "description": "",
      "address": {
        "street": "Friedrichstraße 68",
        "postcode": "10117",
        "city": " Berlin",
        "country": "DE"
      },
      "rates": {
        "day": "",
        "flex": "350",
        "fixed": ""
      }
    },
    "geometry": {
      "type": "Point",
      "coordinates": [
        "13.39050936",
        "52.51261063"
      ]
    }
  },
  {
    "type": "Feature",
    "properties": {
      "name": "WeWork Sony Center",
      "website": "https://www.wework.com/l/berlin",
      "description": "",
      "address": {
        "street": "Kemperplatz 1",
        "postcode": "10785",
        "city": "Berlin",
        "country": "DE"
      },
      "rates": {
        "day": "",
        "flex": "320",
        "fixed": "370"
      }
    },
    "geometry": {
      "type": "Point",
      "coordinates": [
        "13.3719909",
        "52.51124051"
      ]
    }
  },
  {
    "type": "Feature",
    "properties": {
      "name": "WeWork Hackescher Markt",
      "website": "https://www.wework.com/l/berlin",
      "description": "",
      "address": {
        "street": "Neue Schônhauserstraße 3-5",
        "postcode": "10178",
        "city": "Berlin",
        "country": "DE"
      },
      "rates": {
        "day": "",
        "flex": "",
        "fixed": "350"
      }
    },
    "geometry": {
      "type": "Point",
      "coordinates": [
        "13.40467061",
        "52.52473997"
      ]
    }
  },
  {
    "type": "Feature",
    "properties": {
      "name": "Maxway Coffee",
      "website": "",
      "description": "",
      "address": {
        "street": "Maaßenstraße 13",
        "postcode": "10777",
        "city": " Berlin",
        "country": "DE"
      },
      "rates": {
        "day": "",
        "flex": "",
        "fixed": ""
      }
    },
    "geometry": {
      "type": "Point",
      "coordinates": [
        "13.35470937",
        "52.49758044"
      ]
    }
  },
  {
    "type": "Feature",
    "properties": {
      "name": "easybusy",
      "website": "http://www.easybusyspace.de/",
      "description": "",
      "address": {
        "street": "Bernauer straße 50",
        "postcode": "10435",
        "city": " Berlin Mitte",
        "country": "DE"
      },
      "rates": {
        "day": "70",
        "flex": "",
        "fixed": ""
      }
    },
    "geometry": {
      "type": "Point",
      "coordinates": [
        "13.40403079",
        "52.54024097"
      ]
    }
  },
  {
    "type": "Feature",
    "properties": {
      "name": "Bar in a Jar",
      "website": "https://www.facebook.com/barinajar.de/",
      "description": "",
      "address": {
        "street": "Mariannenstraße 29",
        "postcode": null,
        "city": "Berlin",
        "country": "DE"
      },
      "rates": {
        "day": "",
        "flex": "",
        "fixed": ""
      }
    },
    "geometry": {
      "type": "Point",
      "coordinates": [
        "13.42074907",
        "52.4969592"
      ]
    }
  },
  {
    "type": "Feature",
    "properties": {
      "name": "Melis Coffe 2",
      "website": "",
      "description": "",
      "address": {
        "street": "Am Friedrichshain 35",
        "postcode": "10407",
        "city": " Berlin",
        "country": "DE"
      },
      "rates": {
        "day": "",
        "flex": "",
        "fixed": ""
      }
    },
    "geometry": {
      "type": "Point",
      "coordinates": [
        "13.42473952",
        "52.52833928"
      ]
    }
  },
  {
    "type": "Feature",
    "properties": {
      "name": "Lerchen und Eulen",
      "website": "lerchenundeulen.de",
      "description": "",
      "address": {
        "street": "Pücklerstraße 33",
        "postcode": "10997",
        "city": "Berlin",
        "country": "DE"
      },
      "rates": {
        "day": "",
        "flex": "",
        "fixed": ""
      }
    },
    "geometry": {
      "type": "Point",
      "coordinates": [
        "13.43070973",
        "52.50209057"
      ]
    }
  },
  {
    "type": "Feature",
    "properties": {
      "name": "Fireworks",
      "website": "https://fireworkscoworking.wordpress.com/",
      "description": "",
      "address": {
        "street": "Stockholmer straße 4",
        "postcode": "13359",
        "city": " Berlin",
        "country": "DE"
      },
      "rates": {
        "day": "",
        "flex": "",
        "fixed": "150"
      }
    },
    "geometry": {
      "type": "Point",
      "coordinates": [
        "13.382414",
        "52.55699"
      ]
    }
  },
  {
    "type": "Feature",
    "properties": {
      "name": "Mindspace",
      "website": "http://mindspace.me/berlin/",
      "description": "",
      "address": {
        "street": "Krausenstraße 9",
        "postcode": "10117",
        "city": " Berlin",
        "country": "DE"
      },
      "rates": {
        "day": "",
        "flex": "350",
        "fixed": ""
      }
    },
    "geometry": {
      "type": "Point",
      "coordinates": [
        "13.391174",
        "52.509431"
      ]
    }
  },
  {
    "type": "Feature",
    "properties": {
      "name": "WeWork Potsdamer Platz",
      "website": "https://www.wework.com/l/berlin",
      "description": "",
      "address": {
        "street": "Stresemannstraße 123",
        "postcode": "10963",
        "city": " Berlin",
        "country": "DE"
      },
      "rates": {
        "day": "",
        "flex": "320",
        "fixed": "320"
      }
    },
    "geometry": {
      "type": "Point",
      "coordinates": [
        "13.378685",
        "52.507287"
      ]
    }
  },
  {
    "type": "Feature",
    "properties": {
      "name": "WeWork Kurfürstendamm",
      "website": "https://www.wework.com/l/berlin",
      "description": "",
      "address": {
        "street": "Kurfürstendamm 11",
        "postcode": "10719",
        "city": " Berlin",
        "country": "DE"
      },
      "rates": {
        "day": "",
        "flex": "320",
        "fixed": "370"
      }
    },
    "geometry": {
      "type": "Point",
      "coordinates": [
        "13.333639",
        "52.504626"
      ]
    }
  }
]